[
  {
    "lat": 21.000667,
    "lng": 105.827072,
    "address": "Học Viện Không Quân, Ngõ 203 Đường Trường Chinh, Phường Khương Mai, Quận Thanh Xuân, Thành phố Hà Nội, 10165, Việt Nam"
  },
  {
    "lat": 20.9933127,
    "lng": 105.8146824,
    "address": "THCS Lương Thế Vinh, Phố Vũ Tông Phan, Phường Khương Đình, Quận Thanh Xuân, Thành phố Hà Nội, 10165, Việt Nam"
  },
  {
    "lat": 21.0323114,
    "lng": 105.8491414,
    "address": "47, Phố Hàng Quạt, Khu phố cổ, Quận Hoàn Kiếm, Thành phố Hà Nội, 11015, Việt Nam"
  },
  {
    "lat": 21.0386664,
    "lng": 105.8222128,
    "address": "Vietnamese class, Ngách 173/24 Hoàng Hoa Thám, Phường Ngọc Hà, Quận Ba Đình, Thành phố Hà Nội, 10062, Việt Nam"
  },
  {
    "lat": 21.003661,
    "lng": 105.8153673,
    "address": "American Preschool, 72A, R2, Đường Nguyễn Trãi, Phường Thượng Đình, Quận Thanh Xuân, Thành phố Hà Nội, 10165, Việt Nam"
  },
  {
    "lat": 21.0197872,
    "lng": 105.8162135,
    "address": "EIV Office, 3, Phố Thành Công, Phường Thành Công, Quận Ba Đình, Thành phố Hà Nội, 10265, Việt Nam"
  },
  {
    "lat": 21.0053516,
    "lng": 105.8027174,
    "address": "LA Center, N6E, room 212, Nhân Hòa, Phường Nhân Chính, Quận Thanh Xuân, Thành phố Hà Nội, 10055, Việt Nam"
  },
  {
    "lat": 21.0070765,
    "lng": 105.8008904,
    "address": "TE! Club, 25T1, Phố Hoàng Ngân, Phường Trung Hòa, Quận Cầu Giấy, Thành phố Hà Nội, 10055, Việt Nam"
  },
  {
    "lat": 21.0100683,
    "lng": 105.8052983,
    "address": "Popodoo English Centre, Phố Hoàng Ngân, Phường Trung Hòa, Quận Cầu Giấy, Thành phố Hà Nội, 10055, Việt Nam"
  },
  {
    "lat": 21.0269606,
    "lng": 105.8178058,
    "address": "Cover School 17.11, 4, Phố Ngọc Khánh, Phường Giảng Võ, Quận Ba Đình, Thành phố Hà Nội, 10067, Việt Nam"
  },
  {
    "lat": 21.0237687,
    "lng": 105.830619,
    "address": "Trung Tâm Fablab Hanoi, 10/49, Ngõ Quan Thổ 1, Phường Ô Chợ Dừa, Quận Đống Đa, Thành phố Hà Nội, 10081, Việt Nam"
  },
  {
    "lat": 21.0287613,
    "lng": 105.8154076,
    "address": "Học Viện Hành Chính Quốc Gia, 77, Ngõ 409 Kim Mã, Phường Ngọc Khánh, Quận Ba Đình, Thành phố Hà Nội, 10251, Việt Nam"
  },
  {
    "lat": 21.0444746,
    "lng": 105.7747102,
    "address": "Trường cao đảng cơ điện hà nội, Ngõ 144 Mai Dịch, Xóm Đồng Xa, Phường Mai Dịch, Quận Cầu Giấy, Thành phố Hà Nội, 10065, Việt Nam"
  },
  {
    "lat": 21.0286141,
    "lng": 105.8097903,
    "address": "Tiếng Trung Cầm Xu - cs1, Ngõ 575 Kim Mã, Phường Ngọc Khánh, Quận Ba Đình, Thành phố Hà Nội, 10298, Việt Nam"
  },
  {
    "lat": 21.0127227,
    "lng": 105.818705,
    "address": "Tiếng Trung Cầm Xu - cs2, Ngõ 131 Thái Hà, Phường Trung Liệt, Quận Đống Đa, Thành phố Hà Nội, 10165, Việt Nam"
  },
  {
    "lat": 21.0481579,
    "lng": 105.8013581,
    "address": "Trung Tâm FabLab USTH, Floor 7, A21 Building, Đường S2, Làng Tân, Phường Nghĩa Đô, Quận Cầu Giấy, Thành phố Hà Nội, 10072, Việt Nam"
  },
  {
    "lat": 21.0091683,
    "lng": 105.8065419,
    "address": "Atlantic 125 Hoang Ngan, 63A, Đường Lê Văn Lương, Phường Trung Hòa, Quận Cầu Giấy, Thành phố Hà Nội, 10055, Việt Nam"
  },
  {
    "lat": 21.0020393,
    "lng": 105.8090381,
    "address": "Trường THCS Phan Đình Giót, Phố Nhân Hòa, Phường Nhân Chính, Quận Thanh Xuân, Thành phố Hà Nội, 10165, Việt Nam"
  },
  {
    "lat": 21.0182899,
    "lng": 105.8274831,
    "address": "Trường THCS Tô Hiến Thành, Ngõ Giếng, Phường Ô Chợ Dừa, Quận Đống Đa, Thành phố Hà Nội, 10178, Việt Nam"
  },
  {
    "lat": 21.0233951,
    "lng": 105.8089129,
    "address": "Vinschool Nguyễn Chí Thanh, 54A, Đường Nguyễn Chí Thanh, Phường Láng Thượng, Quận Đống Đa, Thành phố Hà Nội, 10080, Việt Nam"
  },
  {
    "lat": 20.9994787,
    "lng": 105.7992324,
    "address": "Câu lạc bộ Toán Hà Nội HMC, 187, Ngõ 187 Đường Nguyễn Tuân, Phường Nhân Chính, Quận Thanh Xuân, Thành phố Hà Nội, 10055, Việt Nam"
  },
  {
    "lat": 21.0371542,
    "lng": 105.8107149,
    "address": "Toán Trí Tuệ Superbrain Ba đình, Ngách 432/16 Phố Đội Cấn, Phường Cống Vị, Quận Ba Đình, Thành phố Hà Nội, 10071, Việt Nam"
  },
  {
    "lat": 21.0368581,
    "lng": 105.8109153,
    "address": "Công ty tnhh top edu, Ngõ 432, Phường Cống Vị, Quận Ba Đình, Thành phố Hà Nội, 10071, Việt Nam"
  },
  {
    "lat": 21.0326597,
    "lng": 105.8469715,
    "address": "Trường Mầm Non Hoa Hồng, 52, Phố Hàng Điếu, Cửa Đông, Khu phố cổ, Quận Hoàn Kiếm, Thành phố Hà Nội, 11016, Việt Nam"
  },
  {
    "lat": 21.02563,
    "lng": 105.7718663,
    "address": "Đường Mỹ Đình 2, Phường Mỹ Đình 2, Quận Nam Từ Liêm, Thành phố Hà Nội, 10057, Việt Nam"
  },
  {
    "lat": 21.0456587,
    "lng": 105.8104861,
    "address": "Trường Tiểu học Hoàng Hoa Thám, 2, Phố Vĩnh Phúc, Phường Vĩnh Phúc, Quận Ba Đình, Thành phố Hà Nội, 10062, Việt Nam"
  },
  {
    "lat": 20.9962205,
    "lng": 105.81718,
    "address": "Trường Tiểu học Nguyễn Trãi, Phố Khương Trung, Phường Khương Trung, Quận Thanh Xuân, Thành phố Hà Nội, 10165, Việt Nam"
  },
  {
    "lat": 21.0109326,
    "lng": 105.8316955,
    "address": "Trường THPT Kim Liên, 1, Ngõ 4C Phố Đặng Văn Ngữ, Khu tập thể Trung Tự, Quận Đống Đa, Thành phố Hà Nội, 10306, Việt Nam"
  },
  {
    "lat": 21.013477,
    "lng": 105.8323083,
    "address": "Trường THPT Lê Quý Đôn - Đống Đa, 195, Ngõ Xã Đàn 2, Phường Nam Đồng, Quận Đống Đa, Thành phố Hà Nội, 10306, Việt Nam"
  },
  {
    "lat": 21.0136847,
    "lng": 105.8238941,
    "address": "Trường THCS Quang Trung - Đống Đa, Ngõ 100, Phố Trần Quang Diệu, Phường Trung Liệt, Quận Đống Đa, Thành phố Hà Nội, 10265, Việt Nam"
  },
  {
    "lat": 21.0153495,
    "lng": 105.8099674,
    "address": "Trường Tiểu học Nam Thành Công, Phố Vũ Ngọc Phan, Phường Láng Hạ, Quận Đống Đa, Thành phố Hà Nội, 10167, Việt Nam"
  },
  {
    "lat": 21.005471,
    "lng": 105.8345499,
    "address": "Trường THCS Đống Đa, 28, Phố Lương Định Của, Phường Kim Liên, Quận Đống Đa, Thành phố Hà Nội, 10181, Việt Nam"
  },
  {
    "lat": 21.0172982,
    "lng": 105.8092918,
    "address": "Trường THPT Phan Huy Chú - Đống Đa, 34, Ngõ 49 Huỳnh Thúc Kháng, Phường Láng Hạ, Quận Đống Đa, Thành phố Hà Nội, 10157, Việt Nam"
  },
  {
    "lat": 21.0209307,
    "lng": 105.8204315,
    "address": "Trường THCS Nguyễn Trường Tộ, 28, Ngõ 371 La Thành, Phường Thành Công, Quận Ba Đình, Thành phố Hà Nội, 10265, Việt Nam"
  },
  {
    "lat": 21.0278909,
    "lng": 105.8142645,
    "address": "Trường THCS Phan Chu Trinh, 24, Phố Nguyễn Công Hoan, Phường Ngọc Khánh, Quận Ba Đình, Thành phố Hà Nội, 10067, Việt Nam"
  },
  {
    "lat": 21.0370963,
    "lng": 105.8076358,
    "address": "Trường Tiểu học Hoàng Diệu, 526, Phố Đội Cấn, Phường Cống Vị, Quận Ba Đình, Thành phố Hà Nội, 11150, Việt Nam"
  },
  {
    "lat": 21.0384303,
    "lng": 105.7963522,
    "address": "Trường Tiểu học Dịch Vọng B, Đường Nguyễn Khánh Toàn, Phường Dịch Vọng, Quận Cầu Giấy, Thành phố Hà Nội, 10141, Việt Nam"
  },
  {
    "lat": 21.0299487,
    "lng": 105.8191535,
    "address": "Trường Tiểu học Kim Đồng, Phố Trần Huy Liệu, Phường Giảng Võ, Quận Ba Đình, Thành phố Hà Nội, 10288, Việt Nam"
  },
  {
    "lat": 21.0285579,
    "lng": 105.8220813,
    "address": "Trường THCS Giảng Võ, 1, Phố Trần Huy Liệu, Phường Giảng Võ, Quận Ba Đình, Thành phố Hà Nội, 10288, Việt Nam"
  },
  {
    "lat": 21.0293003,
    "lng": 105.8224835,
    "address": "Trường THPT Nguyễn Trãi - Ba Đình, 50, Phố Nam Cao, Phường Giảng Võ, Quận Ba Đình, Thành phố Hà Nội, 10288, Việt Nam"
  },
  {
    "lat": 21.0431166,
    "lng": 105.8319554,
    "address": "Trường THPT Chu Văn An, 10, Đường Thụy Khuê, Phường Thụy Khuê, Quận Tây Hồ, Thành phố Hà Nội, 10287, Việt Nam"
  },
  {
    "lat": 21.017305,
    "lng": 105.8480096,
    "address": "Trường THCS Tây Sơn, Phố Trần Nhân Tông, Phường Nguyễn Du, Quận Hai Bà Trưng, Thành phố Hà Nội, 10212, Việt Nam"
  },
  {
    "lat": 21.0471409,
    "lng": 105.7959561,
    "address": "Trường Tiểu học Nghĩa Đô, Phố Nghĩa Đô, Phường Nghĩa Đô, Quận Cầu Giấy, Thành phố Hà Nội, 10072, Việt Nam"
  },
  {
    "lat": 21.0331194,
    "lng": 105.8489005,
    "address": "Trường THCS Nguyễn Du, 44-46, Phố Hàng Quạt, Khu phố cổ, Quận Hoàn Kiếm, Thành phố Hà Nội, 11015, Việt Nam"
  },
  {
    "lat": 20.9928095,
    "lng": 105.8153687,
    "address": "Trường Trung học cơ sở Khương Đình, 16, Phố Khương Hạ, Phường Khương Đình, Quận Thanh Xuân, Thành phố Hà Nội, 11718, Việt Nam"
  },
  {
    "lat": 21.0226445,
    "lng": 105.7912527,
    "address": "Trường THCS Yên Hòa, 226, Phố Trung Kính, Phường Yên Hòa, Quận Cầu Giấy, Thành phố Hà Nội, 10079, Việt Nam"
  },
  {
    "lat": 21.0402194,
    "lng": 105.8247058,
    "address": "Trường THCS Ba Đình, 145, Đường Hoàng Hoa Thám, Phường Ngọc Hà, Quận Ba Đình, Thành phố Hà Nội, 10287, Việt Nam"
  },
  {
    "lat": 21.007012,
    "lng": 105.7982471,
    "address": "Trường THPT chuyên Hà Nội - Amsterdam, 1, Phố Hoàng Minh Giám, Phường Trung Hòa, Quận Cầu Giấy, Thành phố Hà Nội, 10055, Việt Nam"
  },
  {
    "lat": 20.9915613,
    "lng": 105.7984822,
    "address": "Trường THCS Việt Nam - Angieri, 7, Nguyễn Quý Đức, Phường Thanh Xuân Bắc, Quận Thanh Xuân, Thành phố Hà Nội, 12011, Việt Nam"
  },
  {
    "lat": 21.0120849,
    "lng": 105.81653,
    "address": "Trường Tiểu học Thái Thịnh, Phố Yên Lãng, Phường Thịnh Quang, Quận Đống Đa, Thành phố Hà Nội, 10165, Việt Nam"
  },
  {
    "lat": 21.0124267,
    "lng": 105.8160773,
    "address": "Trường THCS Thái Thịnh, 131A, Phố Thái Thịnh, Phường Láng Hạ, Quận Đống Đa, Thành phố Hà Nội, 10167, Việt Nam"
  },
  {
    "lat": 21.0421351,
    "lng": 105.8327997,
    "address": "Trường THCS Chu Văn An, 17, Đường Thụy Khuê, Phường Thụy Khuê, Quận Tây Hồ, Thành phố Hà Nội, 10287, Việt Nam"
  },
  {
    "lat": 21.0276701,
    "lng": 105.8231847,
    "address": "Trường Thể thao Thiếu niên 10 tháng 10, Ngõ 20A Núi Trúc, Phường Giảng Võ, Quận Ba Đình, Thành phố Hà Nội, 10060, Việt Nam"
  },
  {
    "lat": 21.013374,
    "lng": 105.8234553,
    "address": "Trường Tiểu học Quang Trung - Đống Đa, 6, Phố Đặng Tiến Đông, Phường Trung Liệt, Quận Đống Đa, Thành phố Hà Nội, 10165, Việt Nam"
  },
  {
    "lat": 21.0166694,
    "lng": 105.7901676,
    "address": "Trường Phổ thông Liên cấp Nguyễn Siêu, 259, Phố Mạc Thái Tổ, Phường Yên Hòa, Quận Cầu Giấy, Thành phố Hà Nội, 10037, Việt Nam"
  },
  {
    "lat": 21.0226037,
    "lng": 105.8015901,
    "address": "Trường Tiểu học Láng Thượng, Ngõ 159 Chùa Láng, Phường Láng Thượng, Quận Đống Đa, Thành phố Hà Nội, 10298, Việt Nam"
  },
  {
    "lat": 21.0091731,
    "lng": 105.804223,
    "address": "Trường Tiểu học Lý Thái Tổ, Ngõ 163 Hoàng Ngân, Phường Trung Hòa, Quận Cầu Giấy, Thành phố Hà Nội, 10055, Việt Nam"
  },
  {
    "lat": 21.0146927,
    "lng": 105.7990235,
    "address": "Trường Tiểu học Trung Hòa, Trung Yên 7, Phường Trung Hòa, Quận Cầu Giấy, Thành phố Hà Nội, 10055, Việt Nam"
  },
  {
    "lat": 21.0140173,
    "lng": 105.7989904,
    "address": "Trường Trung học cơ sở Trung Hòa, 226, Phố Trung Kính, Phường Trung Hòa, Quận Cầu Giấy, Thành phố Hà Nội, 10055, Việt Nam"
  },
  {
    "lat": 21.0128779,
    "lng": 105.8468337,
    "address": "Trường Tiểu học Tây Sơn, 60, Phố Lê Đại Hành, Phường Lê Đại Hành, Quận Hai Bà Trưng, Thành phố Hà Nội, 10058, Việt Nam"
  },
  {
    "lat": 21.0182448,
    "lng": 105.7858869,
    "address": "Trường Tiểu học Nam Trung Yên, Lô A3, Phố Đinh Núp, Phường Yên Hòa, Quận Cầu Giấy, Thành phố Hà Nội, 10037, Việt Nam"
  },
  {
    "lat": 21.0381622,
    "lng": 105.7742942,
    "address": "Trường Cán bộ quản lý Văn hóa, Thể thao và Du lịch, 128A, Đường Hồ Tùng Mậu, Phường Mai Dịch, Quận Cầu Giấy, Thành phố Hà Nội, 10085, Việt Nam"
  },
  {
    "lat": 21.0337414,
    "lng": 105.7828185,
    "address": "Trường Trung học cơ sở Dịch Vọng Hậu, Ngõ 78 Duy Tân, Phường Dịch Vọng Hậu, Quận Cầu Giấy, Thành phố Hà Nội, 10085, Việt Nam"
  },
  {
    "lat": 21.026869,
    "lng": 105.7925215,
    "address": "Trường Phổ thông Đa Trí Tuệ - MIS, 37, Phố Hoàng Quán Chi, Phường Dịch Vọng, Quận Cầu Giấy, Thành phố Hà Nội, 10036, Việt Nam"
  },
  {
    "lat": 20.9974035,
    "lng": 105.8481424,
    "address": "Trường THCS Nguyễn Phong Sắc, 44, Ngõ Tân Lạc, Phường Đồng Tâm, Quận Hai Bà Trưng, Thành phố Hà Nội, 11617, Việt Nam"
  },
  {
    "lat": 21.0059155,
    "lng": 105.840153,
    "address": "Trường THCS Phương Mai, 18, Ngõ 24 Giải Phóng, Phường Phương Mai, Quận Đống Đa, Thành phố Hà Nội, 10181, Việt Nam"
  },
  {
    "lat": 21.0052225,
    "lng": 105.8395392,
    "address": "Trường Tiểu học Phương Mai, No6 - 4 alley, Ngõ 4 Phương Mai, Phường Phương Mai, Quận Đống Đa, Thành phố Hà Nội, 10181, Việt Nam"
  },
  {
    "lat": 21.0242364,
    "lng": 105.7744551,
    "address": "Trường THPT Mỹ Đình, 89, Đường Mỹ Đình, Phường Mỹ Đình 2, Quận Nam Từ Liêm, Thành phố Hà Nội, 10057, Việt Nam"
  },
  {
    "lat": 21.0204528,
    "lng": 105.8380609,
    "address": "Trường Tiểu học Văn Chương, Ngõ Trung Tiền, Phường Khâm Thiên, Quận Đống Đa, Thành phố Hà Nội, 10017, Việt Nam"
  },
  {
    "lat": 21.0358751,
    "lng": 105.8251437,
    "address": "Trường Tiểu học Đại Yên, Ngõ 185 Đội Cấn, Phường Đội Cấn, Quận Ba Đình, Thành phố Hà Nội, 10229, Việt Nam"
  },
  {
    "lat": 21.0384826,
    "lng": 105.8271504,
    "address": "Đình Hữu Tiệp, Ngõ 55 Hoàng Hoa Thám, Phường Ngọc Hà, Quận Ba Đình, Thành phố Hà Nội, 10056, Việt Nam"
  },
  {
    "lat": 21.0432377,
    "lng": 105.8423668,
    "address": "Trường Tiểu học Việt Nam - Cuba, 115, Phố Nguyễn Trường Tộ, Phường Trúc Bạch, Quận Ba Đình, Thành phố Hà Nội, 10075, Việt Nam"
  },
  {
    "lat": 21.0420392,
    "lng": 105.842816,
    "address": "Trường THCS Nguyễn Tri Phương, 67, Phố Cửa Bắc, Phường Quán Thánh, Quận Ba Đình, Thành phố Hà Nội, 10075, Việt Nam"
  },
  {
    "lat": 21.0411981,
    "lng": 105.8428591,
    "address": "Trường THPT Phan Đình Phùng, 30, Phố Phan Đình Phùng, Phường Quán Thánh, Quận Ba Đình, Thành phố Hà Nội, 10075, Việt Nam"
  },
  {
    "lat": 21.0431407,
    "lng": 105.8382887,
    "address": "Trường Tiểu học Nguyễn Tri Phương, Phố Quán Thánh, Phường Quán Thánh, Quận Ba Đình, Thành phố Hà Nội, 10086, Việt Nam"
  },
  {
    "lat": 21.0376144,
    "lng": 105.8134935,
    "address": "Trung tâm GDNN-GDTX quận Ba Đình (cơ sở 3), Ngách 11 Ngõ 294 Đội Cấn, Phường Cống Vị, Quận Ba Đình, Thành phố Hà Nội, 10071, Việt Nam"
  },
  {
    "lat": 21.0339111,
    "lng": 105.8232572,
    "address": "Trường Tiểu học Vạn Phúc, Ngõ 194 Đội Cấn, Phường Đội Cấn, Quận Ba Đình, Thành phố Hà Nội, 10229, Việt Nam"
  },
  {
    "lat": 21.0342925,
    "lng": 105.8206464,
    "address": "Trường THCS Thống Nhất, Ngõ 214 Đội Cấn, Phường Đội Cấn, Quận Ba Đình, Thành phố Hà Nội, 10229, Việt Nam"
  },
  {
    "lat": 21.0428847,
    "lng": 105.8243131,
    "address": "Trường Tiểu học Chu Văn An A, Ngách 1 Ngõ 130 Thụy Khuê, Phường Thụy Khuê, Quận Tây Hồ, Thành phố Hà Nội, 10287, Việt Nam"
  },
  {
    "lat": 21.0438232,
    "lng": 105.8177123,
    "address": "Trường Tiểu học Chu Văn An, 260, Ngõ 256 Đường Thụy Khuê, Phường Thụy Khuê, Quận Tây Hồ, Thành phố Hà Nội, 10062, Việt Nam"
  },
  {
    "lat": 21.0377657,
    "lng": 105.847435,
    "address": "Trường THCS Thanh Quan, Phố Hàng Chai, Khu phố cổ, Quận Hoàn Kiếm, Thành phố Hà Nội, 11058, Việt Nam"
  },
  {
    "lat": 21.0412119,
    "lng": 105.847959,
    "address": "Trung tâm GDNN-GDTX quận Ba Đình, 23, Phố Nguyễn Trung Trực, Phường Trúc Bạch, Quận Ba Đình, Thành phố Hà Nội, 11009, Việt Nam"
  },
  {
    "lat": 21.0483773,
    "lng": 105.841464,
    "address": "Trường THCS Mạc Đĩnh Chi, 55, Phố Trúc Bạch, Phường Trúc Bạch, Quận Ba Đình, Thành phố Hà Nội, 11117, Việt Nam"
  },
  {
    "lat": 21.0462858,
    "lng": 105.8431492,
    "address": "Trường THPT Đinh Tiên Hoàng, Phó Đức Chính, Phường Trúc Bạch, Quận Ba Đình, Thành phố Hà Nội, 11117, Việt Nam"
  },
  {
    "lat": 21.0424516,
    "lng": 105.8462984,
    "address": "Trường THCS Nguyễn Công Trứ, 8, Phố Nguyễn Trường Tộ, Phường Trúc Bạch, Quận Ba Đình, Thành phố Hà Nội, 10075, Việt Nam"
  },
  {
    "lat": 21.0356537,
    "lng": 105.848898,
    "address": "Trường Tiểu học Hồng Hà, 40, Phố Lãn Ông, Phường Hàng Đào, Quận Hoàn Kiếm, Thành phố Hà Nội, 11058, Việt Nam"
  },
  {
    "lat": 21.0283197,
    "lng": 105.8491047,
    "address": "Trường THCS Hoàn Kiếm, Phố Ấu Triệu, Phường Hàng Trống, Quận Hoàn Kiếm, Thành phố Hà Nội, 11006, Việt Nam"
  },
  {
    "lat": 21.0289517,
    "lng": 105.8387247,
    "address": "Trường Tiểu học Lý Thường Kiệt, Phố Yên Thế, Phường Văn Miếu – Quốc Tử Giám, Quận Đống Đa, Thành phố Hà Nội, 10329, Việt Nam"
  },
  {
    "lat": 21.0288794,
    "lng": 105.8383034,
    "address": "Trường THCS Lý Thường Kiệt, 104, Phố Nguyễn Khuyến, Phường Văn Miếu – Quốc Tử Giám, Quận Đống Đa, Thành phố Hà Nội, 10329, Việt Nam"
  },
  {
    "lat": 21.0306997,
    "lng": 105.8452074,
    "address": "Trường Tiểu học Thăng Long, 20, Ngõ Trạm, Phường Hàng Bông, Quận Hoàn Kiếm, Thành phố Hà Nội, 11017, Việt Nam"
  },
  {
    "lat": 21.0202496,
    "lng": 105.8483859,
    "address": "Trường Tiểu học Quang Trung, 39, Phố Trần Quốc Toản, Phường Trần Hưng Đạo, Quận Hoàn Kiếm, Thành phố Hà Nội, 11019, Việt Nam"
  },
  {
    "lat": 21.0232576,
    "lng": 105.8478061,
    "address": "tạp hoá mường thanh, 78, Phố Thợ Nhuộm, Phường Trần Hưng Đạo, Quận Hoàn Kiếm, Thành phố Hà Nội, 11019, Việt Nam"
  },
  {
    "lat": 21.0228844,
    "lng": 105.8496923,
    "address": "Trường THPT Việt Đức, 47, Phố Lý Thường Kiệt, Phường Trần Hưng Đạo, Quận Hoàn Kiếm, Thành phố Hà Nội, 11019, Việt Nam"
  },
  {
    "lat": 20.9989167,
    "lng": 105.8151384,
    "address": "Trường THPT Huỳnh Thúc Kháng, 131, Đường Nguyễn Trãi, Phường Thượng Đình, Quận Thanh Xuân, Thành phố Hà Nội, 10165, Việt Nam"
  },
  {
    "lat": 21.0310073,
    "lng": 105.7902644,
    "address": "Trường Tiểu học Archimedes Academy, Ngõ 2 Phố Thọ Tháp, Phường Dịch Vọng, Quận Cầu Giấy, Thành phố Hà Nội, 10141, Việt Nam"
  },
  {
    "lat": 21.0317411,
    "lng": 105.7904403,
    "address": "Trường Mầm non Happy Smile, Phố Thọ Tháp, Phường Dịch Vọng, Quận Cầu Giấy, Thành phố Hà Nội, 10141, Việt Nam"
  },
  {
    "lat": 21.030489,
    "lng": 105.7940932,
    "address": "Alaska Academy, Phố Thọ Tháp, Phường Dịch Vọng, Quận Cầu Giấy, Thành phố Hà Nội, 10141, Việt Nam"
  },
  {
    "lat": 21.0052721,
    "lng": 105.8183252,
    "address": "Trường Trung học cơ sở Thịnh Quang, 13, Ngõ 122 Láng, Phường Thịnh Quang, Quận Đống Đa, Thành phố Hà Nội, 10165, Việt Nam"
  },
  {
    "lat": 21.0050355,
    "lng": 105.8179498,
    "address": "Trờng Tiểu học Thịnh Quang, Đường Láng, Phường Thịnh Quang, Quận Đống Đa, Thành phố Hà Nội, 10165, Việt Nam"
  },
  {
    "lat": 21.0057066,
    "lng": 105.8176706,
    "address": "Trường Trung học phổ thông Quang Trung - Đống Đa, 178, Đường Láng, Phường Thịnh Quang, Quận Đống Đa, Thành phố Hà Nội, 10165, Việt Nam"
  },
  {
    "lat": 21.007324,
    "lng": 105.8307349,
    "address": "Trường Phổ thông Liên cấp TH School, 6, Phố Chùa Bộc, Phường Quang Trung, Quận Đống Đa, Thành phố Hà Nội, 10306, Việt Nam"
  },
  {
    "lat": 21.0083312,
    "lng": 105.8370142,
    "address": "Trường tiểu học Khương Thượng, Phố Hoàng Tích Trí, Phường Kim Liên, Quận Đống Đa, Thành phố Hà Nội, 10306, Việt Nam"
  },
  {
    "lat": 21.0076429,
    "lng": 105.836178,
    "address": "Trường Tiểu học Kim Liên, 5, Phố Hoàng Tích Trí, Phường Kim Liên, Quận Đống Đa, Thành phố Hà Nội, 10306, Việt Nam"
  },
  {
    "lat": 21.0070908,
    "lng": 105.8344116,
    "address": "Trường Phổ thông H.A.S, Phố Lương Định Của, Phường Kim Liên, Quận Đống Đa, Thành phố Hà Nội, 10306, Việt Nam"
  },
  {
    "lat": 21.0110881,
    "lng": 105.7937189,
    "address": "Trường Tiểu học Trung Yên, Phố Nguyễn Chánh, Phường Trung Hòa, Quận Cầu Giấy, Thành phố Hà Nội, 10161, Việt Nam"
  },
  {
    "lat": 21.0112297,
    "lng": 105.7945222,
    "address": "Trường Mầm non Peace School, Phố Tú Mỡ, Phường Trung Hòa, Quận Cầu Giấy, Thành phố Hà Nội, 10055, Việt Nam"
  },
  {
    "lat": 21.0104023,
    "lng": 105.7927502,
    "address": "Trường THCS & THPT Lương Thế Vinh - Cơ sở A, Phố Nguyễn Chánh, Phường Trung Hòa, Quận Cầu Giấy, Thành phố Hà Nội, 10161, Việt Nam"
  },
  {
    "lat": 21.0035036,
    "lng": 105.8061821,
    "address": "Trường THPT Nhân Chính, 01, Phố Ngụy Như Kon Tum, Phường Nhân Chính, Quận Thanh Xuân, Thành phố Hà Nội, 10055, Việt Nam"
  },
  {
    "lat": 21.0402213,
    "lng": 105.7830389,
    "address": "Trường Đại học Ngoại ngữ, Đường Phạm Văn Đồng, Phường Dịch Vọng Hậu, Quận Cầu Giấy, Thành phố Hà Nội, 10065, Việt Nam"
  },
  {
    "lat": 21.010421,
    "lng": 105.8370837,
    "address": "Trường Tiểu học Phương Liên, 11, Phố Xã Đàn, Phường Phương Liên – Trung Tự, Quận Đống Đa, Thành phố Hà Nội, 10306, Việt Nam"
  },
  {
    "lat": 21.0157739,
    "lng": 105.8314076,
    "address": "Trường PTCS Xã Đàn, 111, Ngõ Xã Đàn 2, Phường Nam Đồng, Quận Đống Đa, Thành phố Hà Nội, 10306, Việt Nam"
  },
  {
    "lat": 21.0096835,
    "lng": 105.8327101,
    "address": "Trường Tiểu học Trung Tự, 3, Ngõ 4A Đặng Văn Ngữ, Khu tập thể Trung Tự, Quận Đống Đa, Thành phố Hà Nội, 10306, Việt Nam"
  },
  {
    "lat": 21.0100472,
    "lng": 105.8333495,
    "address": "Trung tâm Giáo dục nghề nghiệp - Giáo dục thường xuyên Đống Đa, 5, Ngõ 4A Đặng Văn Ngữ, Khu tập thể Trung Tự, Quận Đống Đa, Thành phố Hà Nội, 10306, Việt Nam"
  },
  {
    "lat": 21.0129551,
    "lng": 105.828883,
    "address": "Trường Tiểu học Bế Văn Đàn, 2, Ngõ 14 Hồ Đắc Di, Phường Nam Đồng, Quận Đống Đa, Thành phố Hà Nội, 10306, Việt Nam"
  },
  {
    "lat": 21.0139097,
    "lng": 105.829095,
    "address": "Trường THCS Bế Văn Đàn, 181, Phố Nguyễn Lương Bằng, Phường Quang Trung, Quận Đống Đa, Thành phố Hà Nội, 10306, Việt Nam"
  },
  {
    "lat": 21.0186558,
    "lng": 105.8287048,
    "address": "Trường Tiểu học Thịnh Hào, 26, Phố Đông Các, Phường Ô Chợ Dừa, Quận Đống Đa, Thành phố Hà Nội, 10306, Việt Nam"
  },
  {
    "lat": 21.0094054,
    "lng": 105.8494822,
    "address": "Trường THCS Vân Hồ, 193, Phố Bà Triệu, Phường Lê Đại Hành, Quận Hai Bà Trưng, Thành phố Hà Nội, 10058, Việt Nam"
  },
  {
    "lat": 21.0030341,
    "lng": 105.8454575,
    "address": "Trường Tiểu học Lê Văn Tám, 74, Ngõ 40 Tạ Quang Bửu, Phường Bách Khoa, Quận Hai Bà Trưng, Thành phố Hà Nội, 10999, Việt Nam"
  },
  {
    "lat": 21.0044922,
    "lng": 105.80124,
    "address": "Trường Liên cấp TH & THCS Ngôi Sao Hà Nội, Phố Nguyễn Xuân Linh, Phường Nhân Chính, Quận Thanh Xuân, Thành phố Hà Nội, 10055, Việt Nam"
  },
  {
    "lat": 21.0171447,
    "lng": 105.7859415,
    "address": "Trường Tiểu học Jean Piaget, Phố Đinh Núp, Phường Yên Hòa, Quận Cầu Giấy, Thành phố Hà Nội, 10037, Việt Nam"
  },
  {
    "lat": 21.0170679,
    "lng": 105.7767067,
    "address": "Trường THCS Mỹ Đình 1, Phố Trần Văn Lai, Phường Mỹ Đình 1, Quận Nam Từ Liêm, Thành phố Hà Nội, 10074, Việt Nam"
  },
  {
    "lat": 21.0081374,
    "lng": 105.8497129,
    "address": "Trường THCS Tô Hoàng, 27, Đường Đại Cồ Việt, Phường Bách Khoa, Quận Hai Bà Trưng, Thành phố Hà Nội, 10053, Việt Nam"
  },
  {
    "lat": 21.0079557,
    "lng": 105.8493084,
    "address": "Trường Tiểu học Tô Hoàng, 29, Đường Đại Cồ Việt, Phường Bách Khoa, Quận Hai Bà Trưng, Thành phố Hà Nội, 10053, Việt Nam"
  },
  {
    "lat": 21.0005486,
    "lng": 105.8493107,
    "address": "Trường THPT Thăng Long, 44, Phố Tạ Quang Bửu, Phường Bạch Mai, Quận Hai Bà Trưng, Thành phố Hà Nội, 10999, Việt Nam"
  },
  {
    "lat": 21.0220103,
    "lng": 105.8295492,
    "address": "Trường THPT Đống Đa, 10, Ngõ Quan Thổ 1, Phường Hàng Bột, Quận Đống Đa, Thành phố Hà Nội, 10178, Việt Nam"
  },
  {
    "lat": 21.0215012,
    "lng": 105.8303053,
    "address": "Trường Tiểu học Tô Vĩnh Diện, Ngõ Quan Thổ 1, Phường Hàng Bột, Quận Đống Đa, Thành phố Hà Nội, 10178, Việt Nam"
  },
  {
    "lat": 21.0227226,
    "lng": 105.8349101,
    "address": "Trường THCS Huy Văn, Ngõ Văn Chương, Phường Văn Chương, Quận Đống Đa, Thành phố Hà Nội, 10081, Việt Nam"
  },
  {
    "lat": 21.0171701,
    "lng": 105.834876,
    "address": "Trường Tiểu học La Thành, Hẻm 8 Ngách 79 Ngõ Thổ Quan, Phường Thổ Quan, Quận Đống Đa, Thành phố Hà Nội, 10306, Việt Nam"
  },
  {
    "lat": 21.0013503,
    "lng": 105.8052205,
    "address": "Trường Tiểu học Thanh Xuân Trung, Phố Ngụy Như Kon Tum, Phường Nhân Chính, Quận Thanh Xuân, Thành phố Hà Nội, 10055, Việt Nam"
  },
  {
    "lat": 20.9983597,
    "lng": 105.8023462,
    "address": "Trường THCS Thanh Xuân, Ngõ 143 Nguyễn Tuân, Phường Thanh Xuân Trung, Quận Thanh Xuân, Thành phố Hà Nội, 10055, Việt Nam"
  },
  {
    "lat": 21.0386857,
    "lng": 105.7744599,
    "address": "Trường Trung cấp Nghệ thuật Xiếc và Tạp kỹ Việt Nam, Phố Mai Dịch, Xóm Đồng Xa, Phường Mai Dịch, Quận Cầu Giấy, Thành phố Hà Nội, 10085, Việt Nam"
  },
  {
    "lat": 21.0229472,
    "lng": 105.8128485,
    "address": "Trường Tiểu học Thành Công A, Ngõ 9 Nguyên Hồng, Phường Thành Công, Quận Ba Đình, Thành phố Hà Nội, 10143, Việt Nam"
  },
  {
    "lat": 21.0266881,
    "lng": 105.8219208,
    "address": "Trường Mầm non Thực hành Hoa Sen, Phố Trần Huy Liệu, Phường Giảng Võ, Quận Ba Đình, Thành phố Hà Nội, 10178, Việt Nam"
  },
  {
    "lat": 21.0302478,
    "lng": 105.8212177,
    "address": "Trường Mầm non Tuổi Hoa, Phố Nam Cao, Phường Giảng Võ, Quận Ba Đình, Thành phố Hà Nội, 10288, Việt Nam"
  },
  {
    "lat": 21.0370182,
    "lng": 105.772949,
    "address": "Trường THCS Mai Dịch, 2, Phố Dương Khuê, Phường Mai Dịch, Quận Cầu Giấy, Thành phố Hà Nội, 10085, Việt Nam"
  },
  {
    "lat": 21.023023,
    "lng": 105.8135161,
    "address": "Trường THCS Thành Công, Ngõ 9 Nguyên Hồng, Phường Thành Công, Quận Ba Đình, Thành phố Hà Nội, 10143, Việt Nam"
  },
  {
    "lat": 21.0207754,
    "lng": 105.8160937,
    "address": "Trường Tiểu học Thành Công B, Ngõ 6A Thành Công, Phường Thành Công, Quận Ba Đình, Thành phố Hà Nội, 10265, Việt Nam"
  },
  {
    "lat": 21.0178963,
    "lng": 105.8279668,
    "address": "Trường Tiểu học Vietkids, Ngõ Giếng, Phường Ô Chợ Dừa, Quận Đống Đa, Thành phố Hà Nội, 10178, Việt Nam"
  },
  {
    "lat": 20.9979615,
    "lng": 105.8444685,
    "address": "Trường Tiểu học Đồng Tâm, Ngõ 128C Đại La, Phường Đồng Tâm, Quận Hai Bà Trưng, Thành phố Hà Nội, 10999, Việt Nam"
  },
  {
    "lat": 21.0229037,
    "lng": 105.8024089,
    "address": "Trường THCS Láng Thượng, Phố Chùa Láng, Phường Láng Thượng, Quận Đống Đa, Thành phố Hà Nội, 10298, Việt Nam"
  },
  {
    "lat": 21.0210964,
    "lng": 105.7988302,
    "address": "Trường THPT Yên Hòa, 251, Đường Nguyễn Khang, Phường Yên Hòa, Quận Cầu Giấy, Thành phố Hà Nội, 10298, Việt Nam"
  },
  {
    "lat": 21.0278754,
    "lng": 105.8149584,
    "address": "Trường Tiểu hoc Ngọc Khánh, 20, Phố Nguyễn Công Hoan, Phường Ngọc Khánh, Quận Ba Đình, Thành phố Hà Nội, 10067, Việt Nam"
  },
  {
    "lat": 21.0383511,
    "lng": 105.8019982,
    "address": "Trường THPT Cầu Giấy, 8, Ngõ 118 Nguyễn Khánh Toàn, Phường Quan Hoa, Quận Cầu Giấy, Thành phố Hà Nội, 10198, Việt Nam"
  },
  {
    "lat": 20.9923452,
    "lng": 105.7986064,
    "address": "Trường Tiểu học Đặng Trần Côn, Ngõ 11 Phố Nguyễn Quý Đức, Phường Thanh Xuân Bắc, Quận Thanh Xuân, Thành phố Hà Nội, 12011, Việt Nam"
  },
  {
    "lat": 20.9919177,
    "lng": 105.7992812,
    "address": "Trường Tiểu học Thanh Xuân Bắc, Phố Nguyễn Quý Đức, Phường Thanh Xuân Bắc, Quận Thanh Xuân, Thành phố Hà Nội, 12011, Việt Nam"
  },
  {
    "lat": 21.0021183,
    "lng": 105.8165474,
    "address": "Robins, Đường Nguyễn Trãi, Phường Thượng Đình, Quận Thanh Xuân, Thành phố Hà Nội, 10165, Việt Nam"
  },
  {
    "lat": 21.0015163,
    "lng": 105.8153751,
    "address": "Trường Quốc tế Anh Việt Hà Nội, Phố Cự Lộc, Phường Thượng Đình, Quận Thanh Xuân, Thành phố Hà Nội, 10165, Việt Nam"
  },
  {
    "lat": 21.0434513,
    "lng": 105.7729255,
    "address": "Trường Hàn Quốc Hà Nội, Phố Trần Vỹ, Xóm Đồng Xa, Phường Mai Dịch, Quận Cầu Giấy, Thành phố Hà Nội, 10065, Việt Nam"
  },
  {
    "lat": 21.0166078,
    "lng": 105.7760249,
    "address": "Trường Marie Curie, Phố Trần Văn Lai, Phường Mỹ Đình 1, Quận Nam Từ Liêm, Thành phố Hà Nội, 10074, Việt Nam"
  },
  {
    "lat": 21.0157644,
    "lng": 105.775314,
    "address": "Green School Mỹ Đình, Phố Hoàng Trọng Mậu, Khu đô thị Mỹ Đình Sông Đà, Quận Nam Từ Liêm, Thành phố Hà Nội, 10074, Việt Nam"
  },
  {
    "lat": 21.0282567,
    "lng": 105.8293321,
    "address": "Trường Tiểu học Cát Linh, 31A, Phố Cát Linh, Phường Cát Linh, Quận Đống Đa, Thành phố Hà Nội, 10081, Việt Nam"
  },
  {
    "lat": 21.0287284,
    "lng": 105.8293613,
    "address": "Trường THCS Cát Linh, 31, Phố Cát Linh, Phường Cát Linh, Quận Đống Đa, Thành phố Hà Nội, 10081, Việt Nam"
  },
  {
    "lat": 21.0297538,
    "lng": 105.8392583,
    "address": "Trường Tiểu học Phan Chu Trinh, 40-42, Phố Nguyễn Thái Học, Phường Điện Biên, Quận Ba Đình, Thành phố Hà Nội, 10247, Việt Nam"
  },
  {
    "lat": 21.003386,
    "lng": 105.8255106,
    "address": "Trường Tiểu học Tam Khương, Phố Khương Thượng, Phường Khương Thượng, Quận Đống Đa, Thành phố Hà Nội, 10165, Việt Nam"
  },
  {
    "lat": 21.0038195,
    "lng": 105.8250871,
    "address": "Trường THCS Tam Khương, Phố Khương Thượng, Phường Khương Thượng, Quận Đống Đa, Thành phố Hà Nội, 10165, Việt Nam"
  },
  {
    "lat": 21.0328418,
    "lng": 105.8107274,
    "address": "Trường THCS Thăng Long, 46A, Phố Nguyễn Văn Ngọc, Phường Cống Vị, Quận Ba Đình, Thành phố Hà Nội, 10303, Việt Nam"
  },
  {
    "lat": 21.0336773,
    "lng": 105.8118853,
    "address": "Trường THPT Phạm Hồng Thái, 1, Phố Nguyễn Văn Ngọc, Phường Cống Vị, Quận Ba Đình, Thành phố Hà Nội, 10303, Việt Nam"
  },
  {
    "lat": 21.033744,
    "lng": 105.8130385,
    "address": "Hanoi International School, 48, Phố Liễu Giai, Phường Cống Vị, Quận Ba Đình, Thành phố Hà Nội, 10299, Việt Nam"
  },
  {
    "lat": 21.0330584,
    "lng": 105.8128265,
    "address": "Phố Liễu Giai, Phường Cống Vị, Quận Ba Đình, Thành phố Hà Nội, 10203, Việt Nam"
  },
  {
    "lat": 21.0214264,
    "lng": 105.805101,
    "address": "Trường Phổ thông Liên cấp Alfred Nobel, Phố Huỳnh Thúc Kháng, Phường Láng Thượng, Quận Đống Đa, Thành phố Hà Nội, 11513, Việt Nam"
  },
  {
    "lat": 21.0205678,
    "lng": 105.8207558,
    "address": "Trường THPT Hoàng Cầu, 27, Ngõ 44 Nguyễn Phúc Lai, Phường Ô Chợ Dừa, Quận Đống Đa, Thành phố Hà Nội, 10265, Việt Nam"
  },
  {
    "lat": 21.0025938,
    "lng": 105.8364415,
    "address": "Trường THPT Phùng Khắc Khoan, 85, Phố Lương Định Của, Phường Phương Mai, Quận Đống Đa, Thành phố Hà Nội, 10181, Việt Nam"
  },
  {
    "lat": 21.0124655,
    "lng": 105.8101847,
    "address": "Trường THCS Láng Hạ, Ngõ 562 Đường Láng, Phường Láng Hạ, Quận Đống Đa, Thành phố Hà Nội, 10167, Việt Nam"
  },
  {
    "lat": 21.0155713,
    "lng": 105.8367257,
    "address": "Trường THCS Trung Phụng, Ngõ 218 Ngõ Chợ Khâm Thiên, Phường Khâm Thiên, Quận Đống Đa, Thành phố Hà Nội, 10306, Việt Nam"
  },
  {
    "lat": 21.0156076,
    "lng": 105.8362269,
    "address": "Trường Tiểu học Trung Phụng, Ngõ 218 Ngõ Chợ Khâm Thiên, Phường Khâm Thiên, Quận Đống Đa, Thành phố Hà Nội, 10306, Việt Nam"
  },
  {
    "lat": 21.040369,
    "lng": 105.8242035,
    "address": "Trường Tiểu học Ba Đình, 145, Đường Hoàng Hoa Thám, Phường Ngọc Hà, Quận Ba Đình, Thành phố Hà Nội, 10287, Việt Nam"
  },
  {
    "lat": 21.0309119,
    "lng": 105.8264428,
    "address": "Trường THCS Nguyễn Trãi, 25, Phố Giang Văn Minh, Phường Kim Mã, Quận Ba Đình, Thành phố Hà Nội, 10060, Việt Nam"
  },
  {
    "lat": 21.0462504,
    "lng": 105.8497221,
    "address": "Trường THCS Phúc Xá, 2, Phố An Xá, Phường Phúc Xá, Quận Ba Đình, Thành phố Hà Nội, 11009, Việt Nam"
  },
  {
    "lat": 21.0482603,
    "lng": 105.8470353,
    "address": "Trường Tiểu học Nghĩa Dũng, 55, Phố Nghĩa Dũng, Phường Phúc Xá, Quận Ba Đình, Thành phố Hà Nội, 11117, Việt Nam"
  },
  {
    "lat": 21.0342825,
    "lng": 105.8135554,
    "address": "Trường Tiểu học Nguyễn Bá Ngọc, 46, Phố Liễu Giai, Phường Cống Vị, Quận Ba Đình, Thành phố Hà Nội, 10071, Việt Nam"
  },
  {
    "lat": 21.0319429,
    "lng": 105.8066284,
    "address": "Trường Tiểu học Thủ Lệ, 3, Ngõ 9 Đào Tấn, Phường Cống Vị, Quận Ba Đình, Thành phố Hà Nội, 11150, Việt Nam"
  },
  {
    "lat": 20.993477,
    "lng": 105.8487347,
    "address": "Trường Tiểu học Trung Hiền, Ngõ Trại Cá, Phường Trương Định, Quận Hai Bà Trưng, Thành phố Hà Nội, 11617, Việt Nam"
  },
  {
    "lat": 20.9987574,
    "lng": 105.8252174,
    "address": "Trường Tiểu học Khương Mai, Ngõ 106 Nguyễn Ngọc Nại, Phường Khương Mai, Quận Thanh Xuân, Thành phố Hà Nội, 10165, Việt Nam"
  },
  {
    "lat": 20.997019,
    "lng": 105.8174802,
    "address": "Trường THCS Nguyễn Trãi, 126, Phố Khương Trung, Phường Khương Trung, Quận Thanh Xuân, Thành phố Hà Nội, 10165, Việt Nam"
  },
  {
    "lat": 21.0499375,
    "lng": 105.8012735,
    "address": "Trường Mầm non và Tiểu học Genesis, Ngách 29 Ngõ 27 Võ Chí Công, Làng Tân, Phường Nghĩa Đô, Quận Cầu Giấy, Thành phố Hà Nội, 10072, Việt Nam"
  },
  {
    "lat": 21.0027822,
    "lng": 105.8064959,
    "address": "Trường Tiểu học Phan Đình Giót, Phố Ngụy Như Kon Tum, Phường Nhân Chính, Quận Thanh Xuân, Thành phố Hà Nội, 10055, Việt Nam"
  },
  {
    "lat": 21.0284256,
    "lng": 105.8459797,
    "address": "Trường Tiểu học Điện Biên, 44, Phố Quán Sứ, Phường Hàng Bông, Quận Hoàn Kiếm, Thành phố Hà Nội, 11017, Việt Nam"
  },
  {
    "lat": 21.038647,
    "lng": 105.795315,
    "address": "Trường THCS Dịch Vọng, 186, Đường Nguyễn Khánh Toàn, Phường Dịch Vọng, Quận Cầu Giấy, Thành phố Hà Nội, 10141, Việt Nam"
  },
  {
    "lat": 21.0138753,
    "lng": 105.7882521,
    "address": "Trường THCS Nam Trung Yên, 11, Phố Nguyễn Quốc Trị, Phường Trung Hòa, Quận Cầu Giấy, Thành phố Hà Nội, 10161, Việt Nam"
  },
  {
    "lat": 21.042165,
    "lng": 105.7943415,
    "address": "Trường THCS Nghĩa Tân, 14, Phố Tô Hiệu, Phường Nghĩa Tân, Quận Cầu Giấy, Thành phố Hà Nội, 10179, Việt Nam"
  },
  {
    "lat": 21.0424665,
    "lng": 105.795087,
    "address": "Trường Tiểu học Nghĩa Tân, Phố Tô Hiệu, Phường Nghĩa Tân, Quận Cầu Giấy, Thành phố Hà Nội, 10179, Việt Nam"
  },
  {
    "lat": 21.0277809,
    "lng": 105.7972994,
    "address": "Trường Tiểu học An Hoà, 32, Ngõ 381 Nguyễn Khang, Phường Yên Hòa, Quận Cầu Giấy, Thành phố Hà Nội, 10198, Việt Nam"
  },
  {
    "lat": 21.0352167,
    "lng": 105.783963,
    "address": "Trường Tiểu học Dịch Vọng A, Ngõ 181 Đường Xuân Thủy, Phường Dịch Vọng Hậu, Quận Cầu Giấy, Thành phố Hà Nội, 10085, Việt Nam"
  },
  {
    "lat": 21.0433338,
    "lng": 105.7764424,
    "address": "Trường Tiểu học Nguyễn Khả Trạc, Ngõ 122 Phố Mai Dịch, Xóm Đồng Xa, Phường Mai Dịch, Quận Cầu Giấy, Thành phố Hà Nội, 10065, Việt Nam"
  },
  {
    "lat": 20.9917953,
    "lng": 105.8151867,
    "address": "Trường Tiểu học - THCS - THPT Khương Hạ, 31, Phố Khương Hạ, Phường Khương Đình, Quận Thanh Xuân, Thành phố Hà Nội, 11718, Việt Nam"
  },
  {
    "lat": 20.9922292,
    "lng": 105.82697,
    "address": "Trường THCS Khương Mai, Đường Lạc Hồng, Phường Khương Đình, Quận Thanh Xuân, Thành phố Hà Nội, 11718, Việt Nam"
  },
  {
    "lat": 20.9971635,
    "lng": 105.8073518,
    "address": "Trường THCS Thanh Xuân Trung, 90, Đường Nguyễn Tuân, Phường Thanh Xuân Trung, Quận Thanh Xuân, Thành phố Hà Nội, 10055, Việt Nam"
  },
  {
    "lat": 20.9956701,
    "lng": 105.8421003,
    "address": "Trường THCS Phương Liệt, Ngõ 377 Giải Phóng, Phường Phương Liệt, Quận Thanh Xuân, Thành phố Hà Nội, 10181, Việt Nam"
  },
  {
    "lat": 20.9965613,
    "lng": 105.8067482,
    "address": "Trường Tiểu học Nguyễn Tuân, 90, Đường Nguyễn Tuân, Phường Thanh Xuân Trung, Quận Thanh Xuân, Thành phố Hà Nội, 10055, Việt Nam"
  },
  {
    "lat": 21.005924,
    "lng": 105.8107,
    "address": "Trường THCS Nhân Chính, 17, Ngõ 134 Quan Nhân, Phường Nhân Chính, Quận Thanh Xuân, Thành phố Hà Nội, 10165, Việt Nam"
  },
  {
    "lat": 21.0021541,
    "lng": 105.8117801,
    "address": "Trường Tiểu học Nhân Chính, 10, Ngõ 181 Quan Nhân, Phường Nhân Chính, Quận Thanh Xuân, Thành phố Hà Nội, 10165, Việt Nam"
  },
  {
    "lat": 20.9972117,
    "lng": 105.8383519,
    "address": "Trường Tiểu học Phương Liệt, 57, Phố Phương Liệt, Phường Phương Liệt, Quận Thanh Xuân, Thành phố Hà Nội, 10181, Việt Nam"
  },
  {
    "lat": 21.0268139,
    "lng": 105.7739734,
    "address": "Trường Tiểu học Mỹ Đình 2, Phố Trần Hữu Dực, Phường Mỹ Đình 2, Quận Nam Từ Liêm, Thành phố Hà Nội, 10057, Việt Nam"
  },
  {
    "lat": 20.9939023,
    "lng": 105.7873922,
    "address": "Trường THPT Trung Văn, Phố Tố Hữu, Phường Trung Văn, Quận Nam Từ Liêm, Thành phố Hà Nội, 12011, Việt Nam"
  },
  {
    "lat": 21.0255813,
    "lng": 105.7740585,
    "address": "Trường THCS Mỹ Đình 2, Phố Trần Hữu Dực, Phường Mỹ Đình 2, Quận Nam Từ Liêm, Thành phố Hà Nội, 10057, Việt Nam"
  },
  {
    "lat": 20.9942072,
    "lng": 105.7794452,
    "address": "Trường Tiểu học Nguyễn Du, Phố Cương Kiên, Phường Trung Văn, Quận Nam Từ Liêm, Thành phố Hà Nội, 12011, Việt Nam"
  },
  {
    "lat": 20.9937101,
    "lng": 105.7792239,
    "address": "Trường THCS Nguyễn Du, Trung Thư, Phường Trung Văn, Quận Nam Từ Liêm, Thành phố Hà Nội, 12011, Việt Nam"
  },
  {
    "lat": 20.9902825,
    "lng": 105.7848578,
    "address": "Trường Tiểu học Trung Văn, Đường Trung Văn, Phường Trung Văn, Quận Nam Từ Liêm, Thành phố Hà Nội, 12011, Việt Nam"
  },
  {
    "lat": 20.9909212,
    "lng": 105.7909973,
    "address": "Trường THCS Trung Văn, Phùng Khoang 2, Phường Trung Văn, Quận Nam Từ Liêm, Thành phố Hà Nội, 12011, Việt Nam"
  },
  {
    "lat": 20.9914053,
    "lng": 105.790527,
    "address": "Trường Phổ thông Olympia, Đường Trung Văn, Phường Trung Văn, Quận Nam Từ Liêm, Thành phố Hà Nội, 12011, Việt Nam"
  },
  {
    "lat": 21.010664,
    "lng": 105.7754932,
    "address": "Trường THCS Mễ Trì, Phố Đồng Me, Phường Mễ Trì, Quận Nam Từ Liêm, Thành phố Hà Nội, 10074, Việt Nam"
  },
  {
    "lat": 21.0103391,
    "lng": 105.7763706,
    "address": "Ngõ 89 Mễ Trì Thượng, Phường Mễ Trì, Quận Nam Từ Liêm, Thành phố Hà Nội, 10161, Việt Nam"
  },
  {
    "lat": 21.0122798,
    "lng": 105.7700215,
    "address": "Trường THCS Phú Đô, Đường Lê Quang Đạo, Phường Phú Đô, Quận Nam Từ Liêm, Thành phố Hà Nội, 10074, Việt Nam"
  },
  {
    "lat": 21.0147223,
    "lng": 105.7810413,
    "address": "Trường Tiểu học Lômônôxốp, Phố Mễ Trì Hạ, Phường Mễ Trì, Quận Nam Từ Liêm, Thành phố Hà Nội, 10074, Việt Nam"
  },
  {
    "lat": 20.9991774,
    "lng": 105.809149,
    "address": "Trường THPT Hoàng Mai, 54A2, Đường Vũ Trọng Phụng, Phường Thanh Xuân Trung, Quận Thanh Xuân, Thành phố Hà Nội, 10165, Việt Nam"
  },
  {
    "lat": 21.0236574,
    "lng": 105.8109119,
    "address": "Trường Trung cấp Kỹ thuật - Tin học Hà Nội, 73, Đường Nguyễn Chí Thanh, Phường Láng Hạ, Quận Đống Đa, Thành phố Hà Nội, 10143, Việt Nam"
  },
  {
    "lat": 21.0192947,
    "lng": 105.8385902,
    "address": "Trường Trung cấp nghề Nấu ăn - Nghiệp vụ Du lịch và Thời trang Hà Nội, 56, Phố Khâm Thiên, Phường Khâm Thiên, Quận Đống Đa, Thành phố Hà Nội, 10017, Việt Nam"
  },
  {
    "lat": 21.0186308,
    "lng": 105.8359502,
    "address": "Trường Trung cấp nghề Kỹ thuật Nấu ăn - Nghiệp vụ Du lịch và Thời trang Hà Nội (cơ sở 2), 6, Ngõ 151, Phường Thổ Quan, Quận Đống Đa, Thành phố Hà Nội, 10306, Việt Nam"
  },
  {
    "lat": 21.0496136,
    "lng": 105.8450192,
    "address": "Trường Trung cấp Xây dựng Hà Nội, Phố Nghĩa Dũng, Phường Phúc Xá, Quận Ba Đình, Thành phố Hà Nội, 11117, Việt Nam"
  },
  {
    "lat": 21.0468362,
    "lng": 105.8479531,
    "address": "Trường Trung cấp Kinh tế - Kỹ thuật và Công nghệ Hà Nội (cơ sở 2), 102, Phố Tân Ấp, Phường Phúc Xá, Quận Ba Đình, Thành phố Hà Nội, 11117, Việt Nam"
  },
  {
    "lat": 21.0026516,
    "lng": 105.8465688,
    "address": "Phố Lê Thanh Nghị, Phường Bách Khoa, Quận Hai Bà Trưng, Thành phố Hà Nội, 10999, Việt Nam"
  },
  {
    "lat": 21.0057349,
    "lng": 105.7967019,
    "address": "Trường Hà Nội Toronto, TH3, Phố Hoàng Minh Giám, Phường Trung Hòa, Quận Cầu Giấy, Thành phố Hà Nội, 10055, Việt Nam"
  },
  {
    "lat": 21.0079236,
    "lng": 105.7999622,
    "address": "Trường THCS Trần Duy Hưng, 5, Phố Nguyễn Xuân Linh, Phường Trung Hòa, Quận Cầu Giấy, Thành phố Hà Nội, 10055, Việt Nam"
  },
  {
    "lat": 21.0165481,
    "lng": 105.7915878,
    "address": "Trường THCS Cầu Giấy, 9, Phố Nguyễn Xuân Nham, Phường Yên Hòa, Quận Cầu Giấy, Thành phố Hà Nội, 10037, Việt Nam"
  },
  {
    "lat": 21.020279,
    "lng": 105.7938458,
    "address": "Trường Tiểu học Yên Hòa, 2, Phố Hạ Yên Quyết, Phường Yên Hòa, Quận Cầu Giấy, Thành phố Hà Nội, 10079, Việt Nam"
  },
  {
    "lat": 21.0413862,
    "lng": 105.7798915,
    "address": "Làng Trẻ em SOS Hà Nội, Ngõ 2 Phạm Thận Duật, Xóm Đồng Xa, Phường Mai Dịch, Quận Cầu Giấy, Thành phố Hà Nội, 10065, Việt Nam"
  },
  {
    "lat": 21.0380446,
    "lng": 105.7840921,
    "address": "Trường Đại học Sư phạm Hà Nội, 136, Đường Xuân Thủy, Phường Dịch Vọng Hậu, Quận Cầu Giấy, Thành phố Hà Nội, 10141, Việt Nam"
  },
  {
    "lat": 21.0420744,
    "lng": 105.7877448,
    "address": "Đường Tuổi Trẻ, Phường Dịch Vọng Hậu, Quận Cầu Giấy, Thành phố Hà Nội, 10179, Việt Nam"
  },
  {
    "lat": 21.037269,
    "lng": 105.7848239,
    "address": "Trường Đại học Sư phạm Hà Nội, 136, Đường Xuân Thủy, Phường Dịch Vọng Hậu, Quận Cầu Giấy, Thành phố Hà Nội, 10141, Việt Nam"
  },
  {
    "lat": 21.0355567,
    "lng": 105.785827,
    "address": "Phố Trần Quốc Vượng, Phường Dịch Vọng Hậu, Quận Cầu Giấy, Thành phố Hà Nội, 10085, Việt Nam"
  },
  {
    "lat": 21.0343213,
    "lng": 105.778476,
    "address": "Trường Tiểu học Mai Dịch, Ngõ 58 Phố Trần Bình, Phường Mai Dịch, Quận Cầu Giấy, Thành phố Hà Nội, 10085, Việt Nam"
  },
  {
    "lat": 21.0344057,
    "lng": 105.7778283,
    "address": "Trường THCS Mai Dịch, Ngõ 58 Phố Trần Bình, Phường Mai Dịch, Quận Cầu Giấy, Thành phố Hà Nội, 10085, Việt Nam"
  },
  {
    "lat": 21.0394266,
    "lng": 105.80456,
    "address": "Trường Tiểu học và THCS FPT Cầu Giấy, Ngõ 1 Đông Quan, Phường Quan Hoa, Quận Cầu Giấy, Thành phố Hà Nội, 11150, Việt Nam"
  },
  {
    "lat": 21.0095275,
    "lng": 105.803194,
    "address": "Trường THCS & THPT Lý Thái Tổ, Phố Hoàng Ngân, Phường Trung Hòa, Quận Cầu Giấy, Thành phố Hà Nội, 10055, Việt Nam"
  },
  {
    "lat": 20.9925476,
    "lng": 105.7969702,
    "address": "Trường THPT chuyên Khoa học Tự nhiên, Ngõ 67 Phố Nguyễn Đức Quý, Phường Thanh Xuân Bắc, Quận Thanh Xuân, Thành phố Hà Nội, 12011, Việt Nam"
  },
  {
    "lat": 20.9942129,
    "lng": 105.7949812,
    "address": "SenTia School, Ngõ 19 Tố Hữu, Phường Trung Văn, Quận Nam Từ Liêm, Thành phố Hà Nội, 12011, Việt Nam"
  },
  {
    "lat": 21.042969,
    "lng": 105.8463077,
    "address": "Trường Tiểu học Nguyễn Trung Trực, 9A, Phố Phạm Hồng Thái, Phường Trúc Bạch, Quận Ba Đình, Thành phố Hà Nội, 11009, Việt Nam"
  },
  {
    "lat": 20.9928898,
    "lng": 105.8148882,
    "address": "Trường THPT Hồ Tùng Mậu, 18, Phố Khương Hạ, Phường Khương Đình, Quận Thanh Xuân, Thành phố Hà Nội, 11718, Việt Nam"
  },
  {
    "lat": 21.0079787,
    "lng": 105.8366242,
    "address": "Trường Tiểu học Đống Đa, 3, Phố Hoàng Tích Trí, Phường Kim Liên, Quận Đống Đa, Thành phố Hà Nội, 10306, Việt Nam"
  },
  {
    "lat": 21.0015438,
    "lng": 105.8150083,
    "address": "Trường Quốc tế Anh Việt Hà Nội, Phố Cự Lộc, Phường Thượng Đình, Quận Thanh Xuân, Thành phố Hà Nội, 10165, Việt Nam"
  },
  {
    "lat": 21.0296354,
    "lng": 105.7998386,
    "address": "Trường Tiểu học Quan Hoa, Ngõ 79 Cầu Giấy, Phường Quan Hoa, Quận Cầu Giấy, Thành phố Hà Nội, 10198, Việt Nam"
  },
  {
    "lat": 21.0170557,
    "lng": 105.8006069,
    "address": "Trường Archimedes Academy, 19, Phố Nguyễn Vĩnh Bảo, Phường Yên Hòa, Quận Cầu Giấy, Thành phố Hà Nội, 10055, Việt Nam"
  },
  {
    "lat": 21.0323891,
    "lng": 105.8496131,
    "address": "Trường Tiểu Học Nguyễn Bá Ngọc, Ngõ Hàng Chỉ, Khu phố cổ, Quận Hoàn Kiếm, Thành phố Hà Nội, 11015, Việt Nam"
  },
  {
    "lat": 20.9961673,
    "lng": 105.7829301,
    "address": "Genesis School, Phố Đồng Sợi, Khu đô thị Vinaconex 3, Quận Nam Từ Liêm, Thành phố Hà Nội, 12011, Việt Nam"
  },
  {
    "lat": 21.0038447,
    "lng": 105.8052678,
    "address": "Trung tâm Sao Mai, 6, Ngõ 9 Hoàng Đạo Thúy, Phường Nhân Chính, Quận Thanh Xuân, Thành phố Hà Nội, 10055, Việt Nam"
  },
  {
    "lat": 21.0311578,
    "lng": 105.7893696,
    "address": "Trường Trung học cơ sở Trương Công Giai, Phố Trương Công Giai, Phường Dịch Vọng, Quận Cầu Giấy, Thành phố Hà Nội, 10141, Việt Nam"
  },
  {
    "lat": 21.0314686,
    "lng": 105.792084,
    "address": "Phố Dịch Vọng, Phường Dịch Vọng, Quận Cầu Giấy, Thành phố Hà Nội, 10141, Việt Nam"
  },
  {
    "lat": 21.0387788,
    "lng": 105.7850406,
    "address": "Trường Tiểu học Thực hành Nguyễn Tất Thành, Ngõ 130 Đường Xuân Thủy, Phường Dịch Vọng Hậu, Quận Cầu Giấy, Thành phố Hà Nội, 10179, Việt Nam"
  },
  {
    "lat": 21.0391227,
    "lng": 105.7829168,
    "address": "Trường Đại học Sư phạm Hà Nội, 136, Đường Xuân Thủy, Phường Dịch Vọng Hậu, Quận Cầu Giấy, Thành phố Hà Nội, 10141, Việt Nam"
  },
  {
    "lat": 21.0321682,
    "lng": 105.8149939,
    "address": "Trường Tiểu học, Trung học cơ sở Vinschool Metropolis, Phố Liễu Giai, Phường Ngọc Khánh, Quận Ba Đình, Thành phố Hà Nội, 10251, Việt Nam"
  },
  {
    "lat": 21.0169862,
    "lng": 105.7920991,
    "address": "Trường Tiểu học Nguyễn Viết Xuân, Ngõ 187 Trung Kính, Phường Yên Hòa, Quận Cầu Giấy, Thành phố Hà Nội, 10037, Việt Nam"
  },
  {
    "lat": 21.0217198,
    "lng": 105.8283985,
    "address": "Trường THCS Tô Vĩnh Diện, 12, Ngách 79 Ngõ Cẩm Vân, Phường Hàng Bột, Quận Đống Đa, Thành phố Hà Nội, 10178, Việt Nam"
  },
  {
    "lat": 21.0200885,
    "lng": 105.7888983,
    "address": "Trường Trung học cơ sở Lê Quý Đôn, Phố Nguyễn Xuân Nham, Phường Yên Hòa, Quận Cầu Giấy, Thành phố Hà Nội, 10037, Việt Nam"
  },
  {
    "lat": 20.9986848,
    "lng": 105.7873191,
    "address": "Trường Vinschool Greenbay, Mộc Lan 6, Phường Mễ Trì, Quận Nam Từ Liêm, Thành phố Hà Nội, 12011, Việt Nam"
  },
  {
    "lat": 21.0424177,
    "lng": 105.8093058,
    "address": "Trường THCS Hoàng Hoa Thám, Phố Vĩnh Phúc, Phường Vĩnh Phúc, Quận Ba Đình, Thành phố Hà Nội, 10062, Việt Nam"
  }
]
